<?xml version="1.0" encoding="UTF-8"?>
<gpx version="1.1" creator="LCDMH" xmlns="http://www.topografix.com/GPX/1/1">
  <metadata><name>Jour 09</name></metadata>
  <trk>
    <name>Jour 09 - etape</name>
    <trkseg>
      <trkpt lat="46.263769" lon="14.690051"><name></name></trkpt>
      <trkpt lat="46.367542" lon="14.774895"><name></name></trkpt>
      <trkpt lat="46.340751" lon="15.423973"><name>Gostilna s prenocisci Danica -67€ - N1</name></trkpt>
      <trkpt lat="46.556507" lon="15.645309"><name>Hotel Lent Dravska ulica 9, 2000 Maribor -77€ - N1 |*visite ? </name></trkpt>
      <trkpt lat="46.497683" lon="15.554581"><name>Bivouac </name></trkpt>
      <trkpt lat="46.466951" lon="15.344467"><name></name></trkpt>
    </trkseg>
  </trk>
</gpx>