<?xml version="1.0" encoding="UTF-8"?>
<gpx version="1.1" creator="LCDMH" xmlns="http://www.topografix.com/GPX/1/1">
  <metadata><name>Jour 02</name></metadata>
  <trk>
    <name>Jour 02 - etape</name>
    <trkseg>
      <trkpt lat="46.320912" lon="9.397345"><name></name></trkpt>
      <trkpt lat="45.929209" lon="10.099037"><name>Passo della Presolana / Giogo della Presolana</name></trkpt>
      <trkpt lat="46.177526" lon="10.313289"><name>Villa Amaranta Room and Breakfast à Edolo -AR - 69€ - N1</name></trkpt>
      <trkpt lat="46.528923" lon="10.453987"><name>Stilfser Joch - Passo dello Stelvio</name></trkpt>
      <trkpt lat="46.446137" lon="11.589546"><name></name></trkpt>
    </trkseg>
  </trk>
</gpx>