<?xml version="1.0" encoding="UTF-8"?>
<gpx version="1.1" creator="LCDMH" xmlns="http://www.topografix.com/GPX/1/1">
  <metadata><name>Jour 11</name></metadata>
  <trk>
    <name>Jour 11 - Col_de_la_Fluela_Davos</name>
    <trkseg>
      <trkpt lat="47.215278" lon="12.181389"><name>Zillertal Krimml</name></trkpt>
      <trkpt lat="47.461944" lon="11.7175"><name>Achensee</name></trkpt>
      <trkpt lat="47.238246" lon="11.338709"><name>J11 mar 09/06 NUIT N1 - Ferienparadies Natterer See *prix ? (201km)</name></trkpt>
      <trkpt lat="46.927222" lon="10.107778"><name>[J12 mer 10/06 - etape 190km] Silvretta Hochalpenstraße</name></trkpt>
      <trkpt lat="46.749903" lon="9.947798"><name>Col de la Flüela (Davos)</name></trkpt>
    </trkseg>
  </trk>
</gpx>